City ID,City,Lat,Lng,Max Temp,Humidity,Cloudiness,Wind Speed,Country,Date
0,saint george,37.1041,-113.5841,97.43,23,0,4.0,US,1661713132
1,mahebourg,-20.4081,57.7,72.25,87,37,11.36,MU,1661713145
2,port alfred,-33.5906,26.891,61.7,74,34,9.28,ZA,1661713149
3,anamur,36.0751,32.8369,81.03,60,0,9.8,TR,1661713154
4,isangel,-19.55,169.2667,68.11,94,75,2.3,VU,1661713156
5,kifri,34.6959,44.9661,97.5,6,0,13.82,IQ,1661713158
6,hermanus,-34.4187,19.2345,47.8,71,5,8.37,ZA,1661713161
7,georgetown,5.4112,100.3354,78.73,93,40,3.44,MY,1661713082
8,kapaa,22.0752,-159.319,78.1,82,12,5.99,US,1661713165
9,east london,-33.0153,27.9116,59.94,94,0,3.44,ZA,1661713170
10,lagoa,39.05,-27.9833,71.4,68,100,13.8,PT,1661713172
11,rikitea,-23.1203,-134.9692,72.5,78,100,24.79,PF,1661713174
12,butaritari,3.0707,172.7902,80.73,80,30,15.73,KI,1661713176
13,fairbanks,64.8378,-147.7164,55.36,89,100,4.61,US,1661713085
14,kropotkin,45.4375,40.5756,80.98,40,0,1.92,RU,1661713181
15,raudeberg,61.9875,5.1352,57.87,64,0,21.32,NO,1661713183
16,punta arenas,-53.15,-70.9167,48.31,66,75,18.41,CL,1661713188
17,port lincoln,-34.7333,135.8667,54.79,76,100,14.47,AU,1661713190
18,tacuarembo,-31.7333,-55.9833,50.72,53,5,13.0,UY,1661713046
19,faya,18.3851,42.4509,75.31,41,60,5.12,SA,1661713196
20,lebu,-37.6167,-73.65,55.81,65,0,13.29,CL,1661713199
21,upernavik,72.7868,-56.1549,39.11,73,40,9.15,GL,1661713201
22,bluff,-46.6,168.3333,40.96,87,8,5.61,NZ,1661713204
23,margate,51.3813,1.3862,65.89,73,100,5.99,GB,1661713206
24,namatanai,-3.6667,152.4333,78.73,83,91,10.74,PG,1661713209
25,tungor,53.3808,142.9564,53.47,99,100,4.97,RU,1661713214
26,teufen,47.3908,9.3864,66.33,68,0,5.75,CH,1661713216
27,puerto ayora,-0.7393,-90.3518,71.55,83,100,5.01,EC,1661713218
28,rajpipla,21.8667,73.5,76.64,80,100,5.3,IN,1661713221
29,atuona,-9.8,-139.0333,77.16,70,1,23.44,PF,1661713223
30,new norfolk,-42.7826,147.0587,52.92,69,100,2.68,AU,1661713225
31,vaini,-21.2,-175.2,72.75,79,22,10.63,TO,1661713228
32,yellowknife,62.456,-114.3525,55.92,100,100,10.36,CA,1661713178
33,mar del plata,-38.0023,-57.5575,51.1,64,75,18.41,AR,1661713113
34,atambua,-9.1061,124.8925,69.12,86,54,4.92,ID,1661713234
35,hilo,19.7297,-155.09,82.27,82,72,3.0,US,1661713237
36,kristiansund,63.1115,7.732,54.25,71,75,8.05,NO,1661713239
37,carnarvon,-24.8667,113.6333,61.05,52,0,19.95,AU,1661713241
38,road town,18.4167,-64.6167,83.44,74,8,13.98,VG,1661713244
39,khatanga,71.9667,102.5,33.78,77,90,6.02,RU,1661713246
40,ushuaia,-54.8,-68.3,39.54,98,100,8.01,AR,1661713248
41,wonthaggi,-38.6044,145.5913,49.82,85,95,9.69,AU,1661713251
42,luganville,-15.5333,167.1667,76.91,87,91,12.62,VU,1661713255
43,kaitangata,-46.2817,169.8464,37.62,94,10,3.06,NZ,1661713258
44,dingle,10.9995,122.6711,76.23,91,7,2.53,PH,1661713260
45,mataura,-46.1927,168.8643,34.65,98,5,2.3,NZ,1661713262
46,labuhan,-6.8844,112.2051,75.97,72,97,11.23,ID,1661713265
47,yar-sale,66.8333,70.8333,36.48,78,9,7.9,RU,1661713267
48,busselton,-33.65,115.3333,49.71,69,100,5.26,AU,1661713269
49,gornopravdinsk,60.05,69.9,59.36,70,0,8.57,RU,1661713272
50,qaanaaq,77.484,-69.3632,35.87,59,55,2.55,GL,1661713274
51,komsomolskiy,40.4272,71.7189,77.72,27,51,4.61,UZ,1661713276
52,iqaluit,63.7506,-68.5145,47.7,61,82,8.01,CA,1661713213
53,tiksi,71.6872,128.8694,40.53,79,7,3.87,RU,1661713281
54,bredasdorp,-34.5322,20.0403,48.43,83,5,8.39,ZA,1661713283
55,cabo san lucas,22.8909,-109.9124,94.17,68,32,8.81,MX,1661712994
56,arraial do cabo,-22.9661,-42.0278,72.23,83,0,13.51,BR,1661713287
57,tasiilaq,65.6145,-37.6368,42.96,96,100,19.75,GL,1661713290
58,aklavik,68.2191,-135.0107,48.2,93,100,10.36,CA,1661713292
59,kyzyl,51.7,94.45,45.28,61,26,5.55,RU,1661713295
60,novobirilyussy,56.9514,90.6661,49.68,97,100,11.9,RU,1661713297
61,yokadouma,3.5167,15.05,72.68,85,100,3.76,CM,1661713299
62,luderitz,-26.6481,15.1594,57.83,61,0,23.96,NA,1661713301
63,kaputa,-8.4689,29.6619,76.01,47,13,3.29,ZM,1661713304
64,jamestown,42.097,-79.2353,86.02,44,40,9.22,US,1661713306
65,leningradskiy,69.3833,178.4167,38.23,88,34,1.63,RU,1661713308
66,lorengau,-2.0226,147.2712,80.44,83,100,11.65,PG,1661713311
67,voh,-20.9667,164.7,68.4,89,100,6.24,NC,1661713315
68,boyuibe,-20.4167,-63.2833,62.02,29,100,16.31,BO,1661713317
69,lamar,33.6668,-95.5836,97.99,46,1,12.97,US,1661713324
70,banda aceh,5.5577,95.3222,79.25,76,100,12.77,ID,1661713326
71,mount gambier,-37.8333,140.7667,53.44,59,68,9.71,AU,1661713329
72,kedrovyy,56.1667,91.8167,48.87,95,100,12.84,RU,1661713331
73,airai,-8.9266,125.4092,55.51,81,48,2.91,TL,1661713336
74,jiaonan,35.8786,119.9753,63.95,95,100,7.52,CN,1661713338
75,kodiak,57.79,-152.4072,53.11,87,100,5.75,US,1661713340
76,codrington,-38.2667,141.9667,54.0,65,100,11.32,AU,1661713343
77,yerbogachen,61.2767,108.0108,39.09,96,86,8.88,RU,1661713345
78,rakkestad,59.4251,11.3454,63.66,69,90,5.35,NO,1661713347
79,pochutla,15.7432,-96.4661,87.82,59,96,4.97,MX,1661713350
80,castro,-24.7911,-50.0119,77.88,38,67,3.04,BR,1661713352
81,kaeo,-35.1,173.7833,49.32,95,45,7.38,NZ,1661713354
82,hobyo,5.3505,48.5268,75.56,83,0,25.59,SO,1661713359
83,adre,13.4667,22.2,73.29,79,100,2.28,TD,1661713361
84,deputatskiy,69.3,139.9,43.41,80,100,1.77,RU,1661713363
85,mikhaylovskoye,51.8239,79.7172,55.67,51,5,3.42,RU,1661713366
86,cayenne,4.9333,-52.3333,87.84,66,20,12.66,GF,1661713204
87,torbay,47.6666,-52.7314,72.39,67,5,5.01,CA,1661713374
88,sioux lookout,50.1001,-91.917,73.47,73,100,12.66,CA,1661713120
89,cidreira,-30.1811,-50.2056,54.41,55,100,18.1,BR,1661713383
90,souillac,-20.5167,57.5167,70.16,88,27,10.02,MU,1661713385
91,henties bay,-22.116,14.2845,54.19,90,1,9.82,NA,1661713387
92,akyab,20.15,92.9,80.06,85,93,3.47,MM,1661713390
93,arona,28.0996,-16.681,69.98,77,40,16.11,ES,1661713392
94,madanapalle,13.55,78.5,74.97,80,83,1.95,IN,1661713394
95,castro marim,37.2207,-7.4435,76.28,66,60,8.37,PT,1661713397
96,esperance,-33.8667,121.9,51.49,62,63,8.08,AU,1661713399
97,te anau,-45.4167,167.7167,36.91,93,42,0.98,NZ,1661713404
98,spokane,47.6166,-117.3677,72.19,36,8,3.0,US,1661713147
99,thompson,55.7435,-97.8558,80.67,43,79,7.87,CA,1661713408
100,cherskiy,68.75,161.3,53.74,69,100,6.49,RU,1661713410
101,camacupa,-12.0167,17.4833,75.52,41,99,8.3,AO,1661713389
102,barrow,71.2906,-156.7887,39.22,93,100,4.61,US,1661713415
103,sucua,-2.4667,-78.1667,75.94,68,75,3.44,EC,1661713417
104,axim,4.8699,-2.2405,75.11,83,100,8.59,GH,1661713419
105,hithadhoo,-0.6,73.0833,82.17,74,100,14.03,MV,1661713422
106,cape town,-33.9258,18.4232,55.35,66,4,1.99,ZA,1661713359
107,vardo,70.3705,31.1107,48.18,93,100,5.75,NO,1661713393
108,ponta do sol,32.6667,-17.1,74.01,67,61,4.43,PT,1661713428
109,albany,42.6001,-73.9662,83.17,65,79,5.01,US,1661713142
110,alice springs,-23.7,133.8833,54.95,33,100,5.75,AU,1661713355
111,swan hill,-35.3378,143.5544,55.65,90,100,15.75,AU,1661713437
112,celestun,20.8667,-90.4,88.84,61,5,10.04,MX,1661713439
113,san jose,37.3394,-121.895,82.53,53,0,9.22,US,1661713440
114,avarua,-21.2078,-159.775,75.25,83,11,9.22,CK,1661713444
115,quatre cocos,-20.2078,57.7625,71.1,87,49,11.32,MU,1661713446
116,edeia,-17.3383,-49.9314,93.07,15,4,7.2,BR,1661713448
117,ossora,59.2353,163.0719,53.71,95,100,5.91,RU,1661713451
118,lavrentiya,65.5833,-171.0,41.49,77,7,1.07,RU,1661713453
119,port elizabeth,-33.918,25.5701,58.32,85,96,4.0,ZA,1661713455
120,sakaraha,-22.9,44.5333,68.52,37,5,8.72,MG,1661713458
121,sakakah,29.9697,40.2064,93.78,12,2,7.36,SA,1661713460
122,hasaki,35.7333,140.8333,68.29,75,100,16.49,JP,1661713462
123,clyde river,70.4692,-68.5914,40.28,78,89,4.45,CA,1661713465
124,pangnirtung,66.1451,-65.7125,47.3,59,93,4.38,CA,1661713467
125,luan,46.3592,6.9759,62.46,81,0,1.77,CH,1661713471
126,saldanha,-33.0117,17.9442,54.82,66,4,9.95,ZA,1661713474
127,deer lake,49.1667,-57.4316,70.59,42,9,13.13,CA,1661713476
128,vargashi,55.3556,65.8467,59.92,55,7,8.21,RU,1661713478
129,pevek,69.7008,170.3133,39.6,78,56,3.89,RU,1661713481
130,chokurdakh,70.6333,147.9167,45.0,79,100,7.11,RU,1661713483
131,hobart,-42.8794,147.3294,53.26,84,100,2.3,AU,1661713485
132,kawalu,-7.3817,108.2082,69.04,90,100,1.43,ID,1661713488
133,makakilo city,21.3469,-158.0858,79.68,73,5,16.33,US,1661713274
134,san ramon,37.7799,-121.978,79.27,60,0,4.0,US,1661713324
135,saa,4.3667,11.45,69.21,98,98,3.36,CM,1661713494
136,serenje,-13.2325,30.2352,63.95,40,0,3.8,ZM,1661713498
137,katsuura,35.1333,140.3,74.14,79,98,17.18,JP,1661713501
138,inongo,-1.95,18.2667,70.02,89,28,5.3,CD,1661713503
139,tura,25.5198,90.2201,73.33,97,100,3.98,IN,1661713505
140,san matias,-16.3667,-58.4,94.14,23,100,4.07,BO,1661713508
141,viedma,-40.8135,-62.9967,61.74,16,0,14.36,AR,1661713510
142,tevriz,57.509,72.4042,52.65,80,7,5.93,RU,1661713512
143,capissayan,18.0509,121.8177,74.66,96,100,2.55,PH,1661713515
144,ibipeba,-11.6408,-42.0111,86.34,22,0,6.15,BR,1661713517
145,nikolskoye,59.7035,30.7861,75.79,58,93,2.77,RU,1661713521
146,bethel,41.3712,-73.414,83.35,63,75,4.61,US,1661713469
147,fort dodge,42.4975,-94.168,87.55,61,20,14.97,US,1661713526
148,shingu,33.7333,135.9833,76.06,88,99,11.39,JP,1661713528
149,mogadishu,2.0371,45.3438,75.9,82,34,15.32,SO,1661713531
150,vao,-22.6667,167.4833,69.13,67,100,20.71,NC,1661713533
151,ayan,56.45,138.1667,52.93,82,100,3.67,RU,1661713535
152,yulara,-25.2406,130.9889,53.67,44,0,10.25,AU,1661713537
153,prince rupert,54.3161,-130.3201,57.81,94,100,6.85,CA,1661713509
154,borogontsy,62.6683,131.1683,52.03,75,100,6.44,RU,1661713542
155,epe,6.5841,3.9834,74.19,86,34,4.88,NG,1661713544
156,abu zabad,12.35,29.25,74.19,82,74,7.78,SD,1661713546
157,flinders,-34.5833,150.8552,59.38,80,6,6.29,AU,1661713549
158,nyurba,63.2842,118.3319,44.62,90,100,8.72,RU,1661713553
159,grand gaube,-20.0064,57.6608,71.38,80,15,3.0,MU,1661713555
160,dikson,73.5069,80.5464,39.78,96,100,16.53,RU,1661713558
161,hamilton,39.1834,-84.5333,94.24,53,40,10.36,US,1661713495
162,vila velha,-20.3297,-40.2925,78.75,78,40,18.41,BR,1661713562
163,tessalit,20.1986,1.0114,83.32,48,70,15.46,ML,1661713564
164,hofn,64.2539,-15.2082,51.93,77,100,2.59,IS,1661713567
165,sydney mines,46.2367,-60.2177,76.14,58,0,5.99,CA,1661713569
166,manizales,5.0689,-75.5174,63.03,84,87,0.85,CO,1661713512
167,betare oya,5.6,14.0833,66.74,97,100,4.05,CM,1661713574
168,sawakin,19.1059,37.3321,90.09,47,8,23.4,SD,1661713576
169,valdez,1.2492,-78.9831,78.75,77,100,11.05,EC,1661713578
170,bathsheba,13.2167,-59.5167,88.41,66,20,14.97,BB,1661713580
171,bambous virieux,-20.3428,57.7575,71.22,86,45,11.41,MU,1661713583
172,dentsville,34.064,-80.9582,92.43,56,0,6.91,US,1661713585
173,cervo,43.6702,-7.4101,70.97,86,22,3.02,ES,1661713587
174,inhapim,-19.5492,-42.12,82.63,31,91,4.52,BR,1661713590
175,lompoc,34.6391,-120.4579,76.69,82,100,8.05,US,1661713414
176,kampot,10.6167,104.1833,75.25,88,100,2.71,KH,1661713596
177,bauchi,10.5,10.0,67.64,96,100,2.24,NG,1661713598
178,namie,37.4833,141.0,57.72,87,6,2.71,JP,1661713601
179,mayo,38.8876,-76.5119,92.12,67,0,10.36,US,1661713476
180,zyryanka,65.75,150.85,54.28,74,100,9.89,RU,1661713605
181,miri,4.4148,114.0089,77.92,87,97,5.21,MY,1661713607
182,pacific grove,36.6177,-121.9166,69.35,79,75,8.05,US,1661713334
183,sola,-13.8833,167.55,79.34,78,19,18.54,VU,1661713612
184,yeppoon,-23.1333,150.7333,58.78,79,85,14.07,AU,1661713614
185,olga,43.7444,135.2892,56.05,72,100,5.26,RU,1661713616
186,kieta,-6.2167,155.6333,78.44,84,92,5.91,PG,1661713623
187,valley city,46.9233,-98.0032,73.92,83,100,5.75,US,1661713549
188,suzhou,31.3114,120.6181,73.98,80,25,7.31,CN,1661713627
189,sistranda,63.7256,8.834,51.76,78,60,9.4,NO,1661713630
190,berdigestyakh,62.0989,126.6992,44.04,90,8,6.06,RU,1661713632
191,vostok,46.4856,135.8833,46.94,96,100,5.35,RU,1661713636
192,hami,42.8,93.45,73.08,20,8,11.41,CN,1661713639
193,saskylakh,71.9167,114.0833,38.75,78,99,7.36,RU,1661713641
194,excelsior springs,39.3392,-94.2261,88.5,61,0,11.5,US,1661713643
195,santa maria del oro,25.9333,-105.3667,80.92,45,100,4.05,MX,1661713646
196,minab,27.1467,57.0801,88.68,47,0,1.77,IR,1661713648
197,uyskoye,54.3775,60.0047,65.68,59,61,5.23,RU,1661713650
198,thinadhoo,0.5333,72.9333,81.55,76,100,12.5,MV,1661713653
199,quetigny,47.3167,5.1167,78.46,50,0,6.91,FR,1661713655
200,polyanka,50.2584,27.6881,68.07,44,0,4.38,UA,1661713657
201,port macquarie,-31.4333,152.9167,53.49,100,100,0.0,AU,1661713660
202,muros,42.7762,-9.0603,62.82,89,65,2.93,ES,1661713662
203,victoria,22.2855,114.1577,86.05,86,100,8.01,HK,1661713472
204,kalmunai,7.4167,81.8167,81.18,77,91,4.54,LK,1661713666
205,santa fe,-31.6333,-60.7,61.0,24,0,8.01,AR,1661713399
206,provideniya,64.3833,-173.3,46.09,70,6,2.93,RU,1661713671
207,fortuna,40.5982,-124.1573,70.93,80,20,5.75,US,1661713673
208,paracuru,-3.41,-39.0306,80.11,61,10,17.18,BR,1661713675
209,geraldton,-28.7667,114.6,48.61,93,100,3.44,AU,1661713678
210,ancud,-41.8697,-73.8203,50.14,62,99,5.14,CL,1661713478
211,naze,28.3667,129.4833,80.04,82,97,4.7,JP,1661713682
212,tromso,69.6496,18.957,50.02,87,75,12.66,NO,1661713684
213,florianopolis,-27.6146,-48.5012,55.69,75,75,21.85,BR,1661713446
214,ribeira grande,38.5167,-28.7,75.6,64,75,9.22,PT,1661713689
215,kandrian,-6.2167,149.55,76.44,90,98,4.38,PG,1661713691
216,ahar,38.4774,47.0699,66.76,33,0,4.29,IR,1661713693
217,zhigansk,66.7697,123.3711,46.29,78,100,16.2,RU,1661713696
218,preston,53.7667,-2.7167,69.78,73,100,6.8,GB,1661713698
219,tilichiki,60.4667,166.1,49.42,95,100,3.65,RU,1661713700
220,vila do maio,15.1333,-23.2167,79.59,76,100,17.87,CV,1661713703
221,caravelas,-17.7125,-39.2481,76.71,68,6,9.04,BR,1661713705
222,kroya,-7.6331,109.2461,73.76,80,100,7.05,ID,1661713707
223,maniitsoq,65.4167,-52.9,44.91,76,11,9.55,GL,1661713710
224,ust-maya,60.4167,134.5333,52.16,68,100,1.63,RU,1661713712
225,mecca,21.4267,39.8261,93.0,28,50,4.18,SA,1661713714
226,sao joao da barra,-21.6403,-41.0511,82.49,77,0,20.4,BR,1661713717
227,ulladulla,-35.35,150.4667,48.78,89,11,4.7,AU,1661713719
228,kungurtug,50.5994,97.5228,39.13,95,100,1.36,RU,1661713721
229,acapulco,16.8634,-99.8901,87.62,66,75,5.75,MX,1661713590
230,dafeng,23.4517,108.5881,78.73,86,26,3.98,CN,1661713726
231,longyearbyen,78.2186,15.6401,39.04,70,40,8.05,SJ,1661713728
232,fort wellington,6.4,-57.6,84.54,64,92,8.37,GY,1661713730
233,norman wells,65.282,-126.8329,58.87,73,100,6.96,CA,1661713732
234,pangai,-19.8,-174.35,74.62,78,12,11.18,TO,1661713735
235,la ronge,55.1001,-105.2842,62.82,94,100,8.05,CA,1661713737
236,slawno,54.3628,16.6789,63.12,90,52,6.71,PL,1661713739
237,nuuk,64.1835,-51.7216,52.41,43,20,10.0,GL,1661713742
238,ust-omchug,61.15,149.6333,45.7,90,100,2.77,RU,1661713744
239,saint-pierre,-21.3393,55.4781,71.91,74,0,0.0,RE,1661713746
240,hoyerswerda,51.4333,14.25,65.61,83,86,4.65,DE,1661713749
241,college,64.8569,-147.8028,55.35,87,75,0.0,US,1661713751
242,gazojak,41.1875,61.4036,78.98,15,0,10.38,TM,1661713753
243,kavaratti,10.5669,72.642,80.35,80,28,19.44,IN,1661713756
244,anadyr,64.75,177.4833,53.49,81,100,2.89,RU,1661713758
245,roi et,15.75,103.75,81.03,78,13,2.04,TH,1661713760
246,gravelbourg,49.8834,-106.5512,57.43,85,100,20.13,CA,1661713763
247,ambilobe,-13.2,49.05,68.23,82,6,2.13,MG,1661713765
248,general roca,-39.0333,-67.5833,62.46,17,0,16.67,AR,1661713767
249,yenagoa,4.9247,6.2642,76.06,83,90,4.09,NG,1661713770
250,nome,64.5011,-165.4064,50.11,67,0,3.44,US,1661713730
251,erenhot,43.6475,111.9767,54.41,77,89,7.96,CN,1661713776
252,nurobod,40.9056,69.8023,71.26,20,0,5.03,UZ,1661713778
253,mount airy,36.4993,-80.6073,88.52,65,40,5.75,US,1661713781
254,dhidhdhoo,6.8833,73.1,80.22,83,76,19.42,MV,1661713623
255,jamame,0.0722,42.7506,74.73,80,0,11.07,SO,1661713785
256,bouna,9.2667,-3.0,71.2,93,100,6.6,CI,1661713788
257,skjervoy,70.0311,20.9714,51.8,88,100,26.04,NO,1661713790
258,cowra,-33.8333,148.6833,46.63,83,7,4.27,AU,1661713794
259,oussouye,12.485,-16.5469,77.49,94,100,5.14,SN,1661713797
260,yanam,16.7333,82.2167,79.83,86,88,1.19,IN,1661713799
261,keetmanshoop,-26.5833,18.1333,57.7,27,0,11.59,NA,1661713803
262,san antonio,29.4241,-98.4936,96.19,50,40,9.22,US,1661713549
263,severo-kurilsk,50.6789,156.125,58.93,95,51,18.92,RU,1661713808
264,xinzhou,38.4092,112.7333,53.73,94,33,1.5,CN,1661713810
265,cabedelo,-6.9811,-34.8339,81.27,77,10,16.11,BR,1661713813
266,chuy,-33.6971,-53.4616,51.26,50,73,14.27,UY,1661713815
267,alofi,-19.0595,-169.9187,75.9,67,100,10.0,NU,1661713817
268,nanakuli,21.3906,-158.1547,82.35,57,20,9.22,US,1661713820
269,portland,45.5234,-122.6762,73.99,60,20,8.05,US,1661713694
270,olafsvik,64.8945,-23.7142,52.52,83,100,15.68,IS,1661713824
271,broken hill,-31.95,141.4333,55.18,91,0,13.62,AU,1661713826
272,lovozero,68.005,35.0117,50.59,83,5,7.76,RU,1661713829
273,bengkulu,-3.8004,102.2655,74.91,90,100,4.5,ID,1661713831
274,abnub,27.2696,31.1511,93.9,25,0,10.13,EG,1661713833
275,owando,-0.4819,15.8999,75.99,75,100,2.17,CG,1661713836
276,kholm,59.2667,32.85,71.1,50,100,4.63,RU,1661713840
277,barela,23.1,80.05,75.7,93,100,4.45,IN,1661713842
278,meulaboh,4.1363,96.1285,75.09,89,100,3.53,ID,1661713845
279,richards bay,-28.783,32.0377,68.2,87,0,10.29,ZA,1661713847
280,probolinggo,-7.7543,113.2159,75.27,76,66,13.0,ID,1661713849
281,aleksandrov gay,50.147,48.5704,83.73,18,80,9.8,RU,1661713852
282,san patricio,28.017,-97.5169,93.16,51,7,11.32,US,1661713854
283,galle,6.0367,80.217,78.44,86,100,11.36,LK,1661713856
284,talnakh,69.4865,88.3972,33.21,81,63,8.84,RU,1661713859
285,khash,28.2211,61.2158,73.53,11,0,7.25,IR,1661713861
286,male,4.1748,73.5089,78.62,83,100,17.4,MV,1661713863
287,sitka,57.0531,-135.33,58.89,82,100,5.75,US,1661713866
288,talavera,15.6167,120.9333,75.74,93,98,2.24,PH,1661713868
289,port pirie,-33.1833,138.0167,52.75,69,76,5.91,AU,1661713873
290,sabha,27.0377,14.4283,90.73,17,0,8.84,LY,1661713875
291,praia,14.9215,-23.5087,79.34,78,75,13.8,CV,1661713877
292,cam ranh,11.9214,109.1591,78.76,83,20,4.61,VN,1661713880
293,port blair,11.6667,92.75,81.45,82,79,9.33,IN,1661713884
294,nishihara,26.1842,127.7558,83.48,84,40,3.44,JP,1661713887
295,takoradi,4.8845,-1.7554,74.8,83,98,8.03,GH,1661713889
296,tautira,-17.7333,-149.15,76.01,76,13,5.39,PF,1661713891
297,fostoria,41.157,-83.4169,87.93,69,16,8.01,US,1661713894
298,hambantota,6.1241,81.1185,78.46,81,100,16.51,LK,1661713896
299,gat,31.61,34.7642,85.41,100,0,11.7,IL,1661713791
300,mpongwe,-13.5091,28.155,72.36,30,0,9.8,ZM,1661713903
301,kermen,42.5,26.25,80.19,35,37,4.43,BG,1661713905
302,husavik,66.0449,-17.3389,51.06,63,100,5.44,IS,1661713907
303,north bay,46.3168,-79.4663,80.94,45,100,7.7,CA,1661713894
304,lunglei,22.8833,92.7333,66.24,96,100,1.97,IN,1661713912
305,rawson,-43.3002,-65.1023,60.12,26,0,13.09,AR,1661713917
306,hua hin,12.5707,99.9588,80.02,83,100,4.29,TH,1661713751
307,shelburne,44.0787,-80.2041,86.23,38,97,11.05,CA,1661713921
308,moose factory,51.2585,-80.6094,78.37,58,99,18.75,CA,1661713923
309,kutum,14.2,24.6667,75.24,53,98,9.53,SD,1661713926
310,wanxian,30.8039,108.3897,79.9,89,94,6.06,CN,1661713928
311,vryburg,-26.9566,24.7284,67.77,21,0,8.95,ZA,1661713933
312,daru,-9.0763,143.2092,77.7,91,57,12.73,PG,1661713935
313,teguldet,57.3064,88.1667,51.37,97,100,11.54,RU,1661713937
314,narsaq,60.9167,-46.05,46.62,78,100,3.04,GL,1661713940
315,huarmey,-10.0681,-78.1522,67.87,69,2,12.24,PE,1661713934
316,roald,62.5833,6.1333,57.76,76,75,10.36,NO,1661713944
317,seymchan,62.8833,152.4333,51.21,76,100,2.95,RU,1661713947
318,panjab,34.388,67.0233,54.99,31,0,5.17,AF,1661713949
319,coquimbo,-29.9533,-71.3436,58.73,82,20,11.5,CL,1661713952
320,iracoubo,5.4802,-53.2011,84.07,70,99,11.61,GF,1661713954
321,ca mau,9.1769,105.15,77.79,89,100,1.66,VN,1661713720
322,wanning,18.8003,110.3967,79.12,87,100,4.34,CN,1661713959
323,miles city,46.4083,-105.8406,76.17,31,20,25.32,US,1661713963
324,bilibino,68.0546,166.4372,50.16,66,100,1.97,RU,1661713965
325,dunedin,-45.8742,170.5036,48.79,81,43,8.01,NZ,1661713970
326,salto,-31.3833,-57.9667,55.56,54,0,15.99,UY,1661713917
327,shahreza,32.0339,51.8794,67.73,10,0,6.89,IR,1661713975
328,fort nelson,58.8053,-122.7002,68.56,36,38,4.41,CA,1661713977
329,port hardy,50.6996,-127.4199,58.95,85,100,8.25,CA,1661713981
330,avera,33.194,-82.5271,89.65,44,83,8.72,US,1661713984
331,yabassi,4.457,9.9682,73.63,97,100,2.28,CM,1661713986
332,majene,-3.5403,118.9707,76.78,90,100,9.64,ID,1661713988
333,bonavista,48.6499,-53.1147,65.17,62,6,10.18,CA,1661713991
334,kenai,60.5544,-151.2583,55.15,97,100,3.44,US,1661713993
335,bolshaya izhora,59.938,29.5772,76.01,59,95,3.78,RU,1661713996
336,trincomalee,8.5711,81.2335,79.47,77,98,16.35,LK,1661713998
337,palimbang,6.2106,124.1894,78.67,82,67,4.0,PH,1661714000
338,kuytun,54.3419,101.5036,38.57,90,19,6.67,RU,1661714003
339,krasnoshchekovo,51.6708,82.7289,49.21,53,6,4.65,RU,1661714005
340,izumo,35.3667,132.7667,64.96,77,14,7.47,JP,1661713797
341,isla mujeres,21.2311,-86.731,89.65,66,6,10.56,MX,1661714009
342,vaitape,-16.5167,-151.75,77.25,74,11,10.78,PF,1661714012
343,atherton,53.5237,-2.4935,70.75,68,100,1.99,GB,1661714014
344,saint-philippe,-21.3585,55.7679,71.22,85,34,8.39,RE,1661714016
345,hualmay,-11.0964,-77.6139,65.93,71,13,11.01,PE,1661714019
346,belaya gora,68.5333,146.4167,48.36,80,49,4.34,RU,1661714021
347,vangaindrano,-23.35,47.6,64.74,89,0,4.34,MG,1661714023
348,araouane,18.9048,-3.5265,95.25,34,52,7.38,ML,1661714026
349,jumla,29.2747,82.1838,61.25,95,100,2.59,NP,1661714028
350,angoche,-16.2325,39.9086,74.03,70,0,10.69,MZ,1661714030
351,honningsvag,70.9821,25.9704,49.75,87,100,6.91,NO,1661714035
352,moranbah,-22.0016,148.0466,57.51,94,5,13.73,AU,1661714037
353,chara,56.9064,118.2631,52.57,86,100,2.84,RU,1661714040
354,chornobay,49.6708,32.3239,73.4,46,0,9.51,UA,1661714042
355,vila,42.0304,-8.1588,71.71,52,1,3.22,PT,1661714045
356,faanui,-16.4833,-151.75,77.23,74,10,10.8,PF,1661714047
357,kuloy,61.0305,42.4925,66.09,59,11,5.21,RU,1661714052
358,taltal,-25.4,-70.4833,62.29,66,23,5.01,CL,1661714054
359,plettenberg bay,-34.0527,23.3716,52.77,85,0,8.1,ZA,1661714017
360,ilulissat,69.2167,-51.1,46.42,53,0,12.66,GL,1661714063
361,itarema,-2.9248,-39.9167,83.5,59,52,19.48,BR,1661713899
362,matagami,49.7502,-77.6328,66.31,88,75,10.36,CA,1661713947
363,kirakira,-10.4544,161.9205,77.72,85,96,10.76,SB,1661714069
364,prince george,53.9166,-122.753,60.26,88,100,1.99,CA,1661714072
365,klaksvik,62.2266,-6.589,49.12,75,43,9.33,FO,1661714074
366,kazachinskoye,57.6953,93.2761,49.84,98,100,7.65,RU,1661714076
367,vila franca do campo,37.7167,-25.4333,75.61,67,31,10.22,PT,1661714079
368,sao filipe,14.8961,-24.4956,77.83,78,57,13.29,CV,1661714081
369,pringsewu,-5.3582,104.9744,72.19,98,99,2.82,ID,1661714083
370,otukpo,7.1913,8.1329,72.5,94,100,2.3,NG,1661714086
371,niquero,20.0431,-77.5828,87.78,62,100,7.23,CU,1661714088
372,padang,-0.9492,100.3543,75.92,92,100,1.66,ID,1661714090
373,darhan,49.4867,105.9228,51.84,83,100,5.39,MN,1661714093
374,tuktoyaktuk,69.4541,-133.0374,44.6,87,75,5.75,CA,1661714095
375,mitsamiouli,-11.3847,43.2844,75.63,65,1,5.84,KM,1661714097
376,venezuela,8.0,-66.0,88.99,54,100,7.43,VE,1661714100
377,general pico,-35.6566,-63.7568,59.56,17,0,5.57,AR,1661713873
378,pombas,17.1503,-25.0201,78.58,76,63,14.36,CV,1661714107
379,dehui,44.5333,125.7,58.23,86,100,11.23,CN,1661714109
380,arlit,18.7369,7.3853,82.18,50,100,2.82,NE,1661714111
381,poum,-20.2333,164.0167,73.26,79,77,11.03,NC,1661714114
382,opuwo,-18.0607,13.84,71.2,24,0,5.06,NA,1661714116
383,tuatapere,-46.1333,167.6833,39.07,92,5,4.09,NZ,1661714119
384,lianran,24.9227,102.485,64.94,95,100,2.91,CN,1661714121
385,sukumo,32.9333,132.7333,73.53,89,98,4.97,JP,1661714123
386,grindavik,63.8424,-22.4338,53.55,87,75,16.11,IS,1661714126
387,boueni,-12.9025,45.0761,75.18,69,0,5.75,YT,1661714128
388,pasni,25.2631,63.471,79.61,83,0,12.95,PK,1661714131
389,dargaville,-35.9333,173.8833,47.05,91,17,5.73,NZ,1661714133
390,marabba,12.35,32.1833,77.77,70,99,7.2,SD,1661714135
391,walvis bay,-22.9575,14.5053,56.35,76,0,3.44,NA,1661714138
392,benguela,-12.5763,13.4055,68.41,84,58,5.77,AO,1661714140
393,salalah,17.0151,54.0924,78.89,89,75,4.61,OM,1661714142
394,chulym,55.0997,80.9572,52.0,76,27,8.41,RU,1661714145
395,andreapol,56.6513,32.2664,72.23,38,100,2.48,RU,1661714147
396,eirunepe,-6.6603,-69.8736,94.21,38,99,1.57,BR,1661713853
397,havelock,34.8791,-76.9013,86.99,77,100,1.99,US,1661714151
398,sobolevo,54.4299,31.8996,66.87,61,100,5.48,RU,1661714154
399,kavieng,-2.5744,150.7967,81.64,79,65,16.64,PG,1661713933
400,mansa,29.9833,75.3833,84.94,55,68,3.06,IN,1661714158
401,toamasina,-18.1667,49.3833,66.87,85,41,5.37,MG,1661714160
402,burley,42.5357,-113.7928,71.56,28,0,13.8,US,1661713937
403,bubaque,11.2833,-15.8333,81.39,82,100,13.29,GW,1661714165
404,lipin bor,60.2622,37.9763,67.64,59,100,5.17,RU,1661714167
405,asti,44.8979,8.2068,78.76,70,38,5.26,IT,1661714170
406,vucje,42.8653,21.9114,76.17,47,98,0.78,RS,1661714172
407,watsa,3.0372,29.5355,64.0,97,100,0.4,CD,1661714174
408,krasnoselkup,65.7,82.4667,38.52,75,100,14.52,RU,1661714177
409,tocopilla,-22.092,-70.1979,65.48,67,100,7.63,CL,1661713914
410,nurlat,54.4277,50.8051,69.42,45,78,5.57,RU,1661714181
411,yabrud,33.9674,36.6574,77.47,28,1,3.8,SY,1661714184
412,kiruna,67.8557,20.2251,47.32,76,20,5.75,SE,1661714186
413,santiago,-33.4569,-70.6483,83.64,18,0,3.44,CL,1661714092
414,mercedes,-34.6515,-59.4307,57.94,31,0,9.04,AR,1661714192
415,sao jose da coroa grande,-8.8978,-35.1478,76.35,79,39,11.27,BR,1661714199
416,sur,22.5667,59.5289,84.15,62,14,11.79,OM,1661714201
417,pisco,-13.7,-76.2167,62.02,94,100,8.05,PE,1661714204
418,barybino,55.2677,37.8933,76.91,41,100,11.18,RU,1661714206
419,lucapa,-8.4192,20.7447,74.07,49,59,2.71,AO,1661714208
420,nouadhibou,20.931,-17.0347,75.18,69,6,20.71,MR,1661714210
421,lerwick,60.1545,-1.1494,53.6,72,0,10.09,GB,1661714213
422,bulawayo,-20.15,28.5833,67.06,27,0,12.06,ZW,1661714215
423,kachiry,53.0675,76.1036,56.55,54,0,4.23,KZ,1661714218
424,inyonga,-6.7167,32.0667,73.74,38,56,3.74,TZ,1661714222
425,tabou,4.423,-7.3528,75.85,87,91,9.4,CI,1661714225
426,palanga,55.9175,21.0686,66.22,77,0,1.14,LT,1661714227
427,kolda,12.8833,-14.95,79.79,88,100,0.89,SN,1661714229
428,bud,39.447,-86.1758,93.2,63,80,9.8,US,1661714232
429,katherine,-14.4667,132.2667,75.52,60,0,5.75,AU,1661714235
430,bandarbeyla,9.4942,50.8122,75.34,85,36,25.48,SO,1661714237
431,halvad,23.0167,71.1833,80.56,70,100,10.96,IN,1661714239
432,conde,-7.2597,-34.9075,80.06,74,20,16.11,BR,1661714242
433,mwinilunga,-11.7358,24.4293,69.19,27,6,5.48,ZM,1661714244
434,brainerd,46.358,-94.2008,75.45,78,100,9.22,US,1661714170
435,zinder,13.8072,8.9881,79.36,67,92,11.56,NE,1661714249
436,constantine,36.365,6.6147,81.81,54,20,11.5,DZ,1661714251
437,paita,-5.0892,-81.1144,68.99,70,4,17.11,PE,1661714253
438,les cayes,18.2,-73.75,86.9,62,100,13.33,HT,1661714255
439,palmerston north,-40.35,175.6167,43.75,89,76,1.99,NZ,1661714258
440,sortavala,61.7053,30.6918,61.36,97,18,7.63,RU,1661714260
441,prudy,57.5738,46.2718,67.24,53,46,4.97,RU,1661714262
442,okhtyrka,50.3104,34.8988,68.77,79,70,5.37,UA,1661714267
443,siniscola,40.5719,9.6922,80.15,76,0,0.36,IT,1661714237
444,buraydah,26.326,43.975,95.45,10,5,10.38,SA,1661714271
445,san andres,12.5847,-81.7006,86.02,62,20,4.61,CO,1661714274
446,tabas,33.5959,56.9244,79.77,9,0,6.73,IR,1661714276
447,denpasar,-8.65,115.2167,78.46,88,40,9.22,ID,1661714241
448,leshukonskoye,64.8989,45.7622,59.34,84,38,4.05,RU,1661714280
449,mizque,-17.941,-65.3402,71.04,39,100,14.41,BO,1661714283
450,dakar,14.6937,-17.4441,85.08,79,20,9.22,SN,1661714173
451,manokwari,-0.8667,134.0833,77.81,79,100,5.41,ID,1661714287
452,konstantinovka,49.6167,127.9833,58.68,75,100,6.44,RU,1661714290
453,atotonilco el alto,20.55,-102.5167,81.91,44,63,4.45,MX,1661714292
454,devon,50.75,-3.75,65.41,77,75,3.83,GB,1661714225
455,enshi,30.3,109.4833,74.88,97,100,0.16,CN,1661714296
456,chikola,43.1906,43.9209,72.45,46,0,5.75,RU,1661714299
457,san cristobal,7.7669,-72.225,86.18,51,86,8.61,VE,1661714301
458,innisfail,-17.5333,146.0333,70.88,93,83,11.54,AU,1661714214
459,biloela,-24.4167,150.5,54.91,93,0,6.69,AU,1661714308
460,khasan,42.4308,130.6434,64.87,76,100,4.5,RU,1661714310
461,pafos,34.7667,32.4167,80.38,69,0,6.91,CY,1661714313
462,farah,32.5,62.5,77.92,10,0,3.38,AF,1661714315
463,soe,-9.8607,124.284,62.56,94,44,4.74,ID,1661714317
464,mount isa,-20.7333,139.5,69.57,78,40,4.61,AU,1661714320
465,port augusta,-32.5,137.7667,52.97,65,77,9.22,AU,1661714322
466,nanortalik,60.1432,-45.2371,40.41,94,100,4.5,GL,1661714324
467,kaya,13.0917,-1.0844,75.92,82,34,6.04,BF,1661714327
468,paamiut,61.994,-49.6678,43.47,59,100,4.85,GL,1661714329
469,kisumu,-0.1022,34.7617,67.71,85,100,6.62,KE,1661714331
470,constitucion,-35.3333,-72.4167,62.74,50,0,9.19,CL,1661714092
471,haines junction,60.7522,-137.5108,57.15,62,99,2.3,CA,1661714336
472,george town,5.4112,100.3354,78.73,92,40,3.44,MY,1661714187
473,maumere,-8.6199,122.2111,75.99,81,85,5.12,ID,1661714340
474,saint-joseph,-21.3667,55.6167,70.21,83,17,7.05,RE,1661714343
475,xiaoweizhai,26.1903,107.5125,72.32,97,100,5.66,CN,1661714345
476,los llanos de aridane,28.6585,-17.9182,71.35,85,75,5.75,ES,1661714347
477,sivaki,52.6333,126.75,51.82,89,49,5.7,RU,1661714350
478,coroico,-16.1889,-67.7271,69.21,57,98,3.69,BO,1661714352
479,acarau,-2.8856,-40.12,84.76,58,71,19.86,BR,1661714355
480,byron bay,-28.65,153.6167,54.95,84,96,6.78,AU,1661714065
481,dickinson,29.4608,-95.0513,94.08,69,40,12.66,US,1661714126
482,ampanihy,-24.7,44.75,64.99,65,0,5.68,MG,1661714361
483,bourail,-21.5667,165.4833,67.93,89,100,6.55,NC,1661714364
484,fare,-16.7,-151.0167,77.02,74,5,9.46,PF,1661714366
485,bogorodskoye,56.55,37.8833,70.36,40,100,6.33,RU,1661714368
486,tianpeng,30.9866,103.9393,66.67,97,100,3.47,CN,1661714371
487,seddon,-37.8068,144.8916,60.39,72,0,16.11,AU,1661714373
488,idah,7.1065,6.7342,74.25,93,100,2.98,NG,1661714376
489,sokoni,-6.4333,39.55,75.18,75,0,15.55,TZ,1661714378
490,yumen,40.2833,97.2,67.26,37,98,2.91,CN,1661714380
491,saint-georges,12.0564,-61.7485,82.78,76,28,8.03,GD,1661714383
492,sechura,-5.5569,-80.8222,75.92,53,13,15.19,PE,1661714385
493,trelew,-43.249,-65.3051,63.07,18,0,12.53,AR,1661714270
494,aswan,24.0934,32.907,98.74,16,4,6.02,EG,1661714391
495,ko samui,9.5357,99.9357,82.96,75,94,6.06,TH,1661714300
496,port hedland,-20.3167,118.5667,57.25,77,0,8.05,AU,1661714396
497,teya,60.3778,92.6267,42.13,95,100,5.97,RU,1661714398
498,thabazimbi,-24.5917,27.4116,68.22,24,0,6.6,ZA,1661714400
499,berbera,10.4396,45.0143,89.11,54,40,4.85,SO,1661714403
500,biltine,14.5333,20.9167,81.75,56,53,5.08,TD,1661714405
501,omboue,-1.5746,9.2618,74.7,77,88,7.4,GA,1661714408
502,la libertad,-2.2333,-80.9,73.06,78,100,8.05,EC,1661714314
503,lieksa,63.3167,30.0167,55.6,89,96,5.97,FI,1661714412
504,nemuro,43.3236,145.575,62.08,92,12,5.48,JP,1661714415
505,glodeni,47.7708,27.5144,76.77,30,17,2.84,MD,1661714417
506,antofagasta,-23.65,-70.4,58.28,62,100,5.99,CL,1661714396
507,taybad,34.74,60.7756,74.53,16,0,20.2,IR,1661714422
508,tornio,65.8481,24.1466,48.22,66,3,9.33,FI,1661714424
509,biggar,55.6167,-3.5167,62.29,87,99,4.47,GB,1661714426
510,ola,59.5833,151.2833,52.14,84,100,8.57,RU,1661714430
511,solana beach,32.9912,-117.2711,90.23,71,0,11.99,US,1661714432
512,cotonou,6.3654,2.4183,76.98,83,40,8.05,BJ,1661714290
513,mananara,-16.1667,49.7667,68.68,88,88,5.77,MG,1661714439
514,kandalaksha,67.162,32.4123,50.09,66,4,3.56,RU,1661714441
515,neuquen,-38.9516,-68.0591,64.29,12,0,8.05,AR,1661714149
516,inhambane,-23.865,35.3833,71.58,88,20,6.91,MZ,1661714445
517,georgiyevka,43.0369,74.7114,60.84,55,20,4.47,KZ,1661714448
518,mtwango,-9.0167,34.8,54.79,74,9,9.89,TZ,1661714450
519,riyadh,24.6877,46.7219,93.34,9,3,8.34,SA,1661714361
520,rameshki,57.3439,36.0453,68.49,42,97,2.62,RU,1661714455
521,batangafo,7.3008,18.2833,67.95,98,100,3.6,CF,1661714457
522,christchurch,-43.5333,172.6333,45.91,91,100,4.61,NZ,1661714385
523,ericeira,38.9627,-9.4156,72.36,81,13,8.34,PT,1661714466
524,coahuayana,18.7333,-103.6833,89.55,58,93,7.9,MX,1661714458
525,buenos aires,-34.6132,-58.3772,57.0,39,0,4.61,AR,1661714246
526,povenets,62.8487,34.8262,61.54,95,85,4.94,RU,1661714472
527,oblivskaya,48.5362,42.5014,86.05,23,85,17.76,RU,1661714475
528,bulgan,48.8125,103.5347,46.92,94,66,2.73,MN,1661714477
529,nelson bay,-32.7167,152.15,59.0,94,20,7.0,AU,1661714480
530,diego de almagro,-26.3667,-70.05,78.82,16,0,11.14,CL,1661714482
531,mon,26.75,95.1,70.66,97,100,2.51,IN,1661714484
532,camacha,33.0833,-16.3333,69.22,68,20,9.22,PT,1661714487
533,ordu,40.9086,37.6845,66.7,91,98,3.94,TR,1661714489
534,san quintin,30.4833,-115.95,73.8,70,10,12.8,MX,1661714468
535,batagay-alyta,67.8006,130.4114,39.0,92,39,3.69,RU,1661714494
536,chumikan,54.7183,135.315,47.03,89,12,6.93,RU,1661714496
537,warrnambool,-38.3833,142.4833,55.78,69,100,17.22,AU,1661714499
538,guerrero negro,27.9769,-114.0611,76.82,63,15,14.58,MX,1661714274
539,qasigiannguit,68.8193,-51.1922,46.65,61,0,7.72,GL,1661714503
540,petukhovo,55.0692,67.9019,56.44,55,55,7.29,RU,1661714506
541,kruisfontein,-34.0033,24.7314,54.88,66,100,12.71,ZA,1661714508
542,ust-nera,64.5667,143.2,43.68,87,36,1.63,RU,1661714510
543,maragogi,-9.0122,-35.2225,75.69,82,29,11.18,BR,1661714513
544,puerto madryn,-42.7692,-65.0385,60.19,26,0,12.77,AR,1661714506
545,waingapu,-9.6567,120.2641,74.88,85,99,6.42,ID,1661714517
546,shenjiamen,29.9576,122.298,78.58,84,11,7.85,CN,1661714520
547,hai duong,20.9333,106.3167,84.2,91,23,3.96,VN,1661714522
548,san jeronimo,-11.9472,-75.2829,62.67,35,99,5.46,PE,1661714524
549,wewak,-3.5534,143.6268,77.52,87,100,6.2,PG,1661714527
550,conceicao da barra,-18.5933,-39.7322,77.23,67,2,9.13,BR,1661714529
551,laiyang,36.9758,120.7136,62.64,95,100,8.1,CN,1661714531
552,redmond,47.674,-122.1215,73.74,65,10,3.0,US,1661714402
553,indiaroba,-11.5192,-37.5117,76.53,66,6,7.09,BR,1661714538
554,tomatlan,19.9333,-105.25,90.5,55,100,8.81,MX,1661714540
555,ust-tsilma,65.441,52.1498,60.84,69,100,4.23,RU,1661714543
556,puerto quijarro,-17.7833,-57.7667,97.72,21,100,3.29,BO,1661714545
557,lodwar,3.1191,35.5973,85.96,33,5,10.22,KE,1661714547
558,vadlapudi,14.3167,79.8,85.66,67,100,5.95,IN,1661714550
559,mariestad,58.7097,13.8237,57.67,83,100,14.54,SE,1661714552
560,mattru,7.6244,-11.8332,72.3,97,100,6.53,SL,1661714554
561,berlevag,70.8578,29.0864,48.2,93,75,10.36,NO,1661714557
562,cumana,10.4635,-64.1775,83.97,71,19,3.58,VE,1661714559
